{
"type": "FeatureCollection",
"name": "corridor_cities_final_wgs84",
"crs": { "type": "name", "properties": { "name": "urn:ogc:def:crs:OGC:1.3:CRS84" } },
"features": [
{ "type": "Feature", "properties": { "fid": 1, "province": "广东省", "city_code": 440000000000.0, "city": "广州市", "wgs84_x": 113.2591693, "wgs84_y": 23.13273722, "fid_2": 1, "corridor_id": "GS", "corridor_nm": "Guangzhou-Shenzhen", "label_cn": "广深", "label_en": "Guangzhou–Shenzhen Corridor", "tp_type": "mixed", "node_type": "core" }, "geometry": { "type": "Point", "coordinates": [ 113.259169299999982, 23.13273722 ] } },
{ "type": "Feature", "properties": { "fid": 2, "province": "广东省", "city_code": 440000000000.0, "city": "深圳市", "wgs84_x": 114.0528369, "wgs84_y": 22.54626707, "fid_2": 1, "corridor_id": "GS", "corridor_nm": "Guangzhou-Shenzhen", "label_cn": "广深", "label_en": "Guangzhou–Shenzhen Corridor", "tp_type": "mixed", "node_type": "core" }, "geometry": { "type": "Point", "coordinates": [ 114.052836899999974, 22.54626707 ] } },
{ "type": "Feature", "properties": { "fid": 3, "province": "广东省", "city_code": 441999999999.99994, "city": "东莞市", "wgs84_x": 113.746691, "wgs84_y": 23.02373844, "fid_2": 1, "corridor_id": "GS", "corridor_nm": "Guangzhou-Shenzhen", "label_cn": "广深", "label_en": "Guangzhou–Shenzhen Corridor", "tp_type": "mixed", "node_type": "middle" }, "geometry": { "type": "Point", "coordinates": [ 113.746691, 23.02373844 ] } },
{ "type": "Feature", "properties": { "fid": 4, "province": "上海市", "city_code": 310000000000.0, "city": "上海市", "wgs84_x": 121.4691438, "wgs84_y": 31.23246711, "fid_2": 2, "corridor_id": "HNH", "corridor_nm": "Shanghai-Nanjing-Hangzhou", "label_cn": "沪宁杭", "label_en": "Shanghai–Nanjing–Hangzhou Corridor", "tp_type": "mixed", "node_type": "core" }, "geometry": { "type": "Point", "coordinates": [ 121.469143800000012, 31.23246711 ] } },
{ "type": "Feature", "properties": { "fid": 5, "province": "江苏省", "city_code": 320000000000.0, "city": "南京市", "wgs84_x": 118.7914401, "wgs84_y": 32.06141907, "fid_2": 2, "corridor_id": "HNH", "corridor_nm": "Shanghai-Nanjing-Hangzhou", "label_cn": "沪宁杭", "label_en": "Shanghai–Nanjing–Hangzhou Corridor", "tp_type": "mixed", "node_type": "core" }, "geometry": { "type": "Point", "coordinates": [ 118.791440099999988, 32.06141907 ] } },
{ "type": "Feature", "properties": { "fid": 6, "province": "江苏省", "city_code": 320000000000.0, "city": "无锡市", "wgs84_x": 120.3072804, "wgs84_y": 31.4929532, "fid_2": 2, "corridor_id": "HNH", "corridor_nm": "Shanghai-Nanjing-Hangzhou", "label_cn": "沪宁杭", "label_en": "Shanghai–Nanjing–Hangzhou Corridor", "tp_type": "mixed", "node_type": "middle" }, "geometry": { "type": "Point", "coordinates": [ 120.307280399999968, 31.4929532 ] } },
{ "type": "Feature", "properties": { "fid": 7, "province": "江苏省", "city_code": 320000000000.0, "city": "常州市", "wgs84_x": 119.9693417, "wgs84_y": 31.81335379, "fid_2": 2, "corridor_id": "HNH", "corridor_nm": "Shanghai-Nanjing-Hangzhou", "label_cn": "沪宁杭", "label_en": "Shanghai–Nanjing–Hangzhou Corridor", "tp_type": "mixed", "node_type": "middle" }, "geometry": { "type": "Point", "coordinates": [ 119.969341699999987, 31.81335379 ] } },
{ "type": "Feature", "properties": { "fid": 8, "province": "江苏省", "city_code": 321000000000.0, "city": "苏州市", "wgs84_x": 120.5811165, "wgs84_y": 31.30194236, "fid_2": 2, "corridor_id": "HNH", "corridor_nm": "Shanghai-Nanjing-Hangzhou", "label_cn": "沪宁杭", "label_en": "Shanghai–Nanjing–Hangzhou Corridor", "tp_type": "mixed", "node_type": "core" }, "geometry": { "type": "Point", "coordinates": [ 120.5811165, 31.30194236 ] } },
{ "type": "Feature", "properties": { "fid": 9, "province": "浙江省", "city_code": 330000000000.0, "city": "杭州市", "wgs84_x": 120.206257, "wgs84_y": 30.24845422, "fid_2": 2, "corridor_id": "HNH", "corridor_nm": "Shanghai-Nanjing-Hangzhou", "label_cn": "沪宁杭", "label_en": "Shanghai–Nanjing–Hangzhou Corridor", "tp_type": "mixed", "node_type": "core" }, "geometry": { "type": "Point", "coordinates": [ 120.206257, 30.24845422 ] } },
{ "type": "Feature", "properties": { "fid": 10, "province": "浙江省", "city_code": 330000000000.0, "city": "宁波市", "wgs84_x": 121.620438, "wgs84_y": 29.86287669, "fid_2": 2, "corridor_id": "HNH", "corridor_nm": "Shanghai-Nanjing-Hangzhou", "label_cn": "沪宁杭", "label_en": "Shanghai–Nanjing–Hangzhou Corridor", "tp_type": "mixed", "node_type": "middle" }, "geometry": { "type": "Point", "coordinates": [ 121.620438, 29.86287669 ] } },
{ "type": "Feature", "properties": { "fid": 11, "province": "浙江省", "city_code": 330000000000.0, "city": "嘉兴市", "wgs84_x": 120.7513035, "wgs84_y": 30.74911367, "fid_2": 2, "corridor_id": "HNH", "corridor_nm": "Shanghai-Nanjing-Hangzhou", "label_cn": "沪宁杭", "label_en": "Shanghai–Nanjing–Hangzhou Corridor", "tp_type": "mixed", "node_type": "middle" }, "geometry": { "type": "Point", "coordinates": [ 120.751303499999977, 30.74911367 ] } },
{ "type": "Feature", "properties": { "fid": 12, "province": "浙江省", "city_code": 331000000000.0, "city": "绍兴市", "wgs84_x": 120.5788056, "wgs84_y": 30.0541863, "fid_2": 2, "corridor_id": "HNH", "corridor_nm": "Shanghai-Nanjing-Hangzhou", "label_cn": "沪宁杭", "label_en": "Shanghai–Nanjing–Hangzhou Corridor", "tp_type": "mixed", "node_type": "middle" }, "geometry": { "type": "Point", "coordinates": [ 120.578805599999981, 30.0541863 ] } },
{ "type": "Feature", "properties": { "fid": 13, "province": "北京市", "city_code": 110000000000.0, "city": "北京市", "wgs84_x": 116.7184462, "wgs84_y": 39.90380874, "fid_2": 3, "corridor_id": "KG", "corridor_nm": "Beijing-Guangzhou", "label_cn": "京广", "label_en": "Beijing–Guangzhou Corridor", "tp_type": "mixed", "node_type": "core" }, "geometry": { "type": "Point", "coordinates": [ 116.7184462, 39.90380874 ] } },
{ "type": "Feature", "properties": { "fid": 14, "province": "河北省", "city_code": 130000000000.0, "city": "石家庄市", "wgs84_x": 114.5090029, "wgs84_y": 38.04138817, "fid_2": 3, "corridor_id": "KG", "corridor_nm": "Beijing-Guangzhou", "label_cn": "京广", "label_en": "Beijing–Guangzhou Corridor", "tp_type": "mixed", "node_type": "core" }, "geometry": { "type": "Point", "coordinates": [ 114.5090029, 38.04138817 ] } },
{ "type": "Feature", "properties": { "fid": 15, "province": "河北省", "city_code": 130000000000.0, "city": "邯郸市", "wgs84_x": 114.5334229, "wgs84_y": 36.62577009, "fid_2": 3, "corridor_id": "KG", "corridor_nm": "Beijing-Guangzhou", "label_cn": "京广", "label_en": "Beijing–Guangzhou Corridor", "tp_type": "mixed", "node_type": "middle" }, "geometry": { "type": "Point", "coordinates": [ 114.5334229, 36.62577009 ] } },
{ "type": "Feature", "properties": { "fid": 16, "province": "河北省", "city_code": 131000000000.0, "city": "邢台市", "wgs84_x": 114.4913866, "wgs84_y": 37.05831243, "fid_2": 3, "corridor_id": "KG", "corridor_nm": "Beijing-Guangzhou", "label_cn": "京广", "label_en": "Beijing–Guangzhou Corridor", "tp_type": "mixed", "node_type": "middle" }, "geometry": { "type": "Point", "coordinates": [ 114.491386599999984, 37.05831243 ] } },
{ "type": "Feature", "properties": { "fid": 17, "province": "河北省", "city_code": 131000000000.0, "city": "保定市", "wgs84_x": 115.4582042, "wgs84_y": 38.87357544, "fid_2": 3, "corridor_id": "KG", "corridor_nm": "Beijing-Guangzhou", "label_cn": "京广", "label_en": "Beijing–Guangzhou Corridor", "tp_type": "mixed", "node_type": "middle" }, "geometry": { "type": "Point", "coordinates": [ 115.458204200000011, 38.873575439999989 ] } },
{ "type": "Feature", "properties": { "fid": 18, "province": "河南省", "city_code": 410000000000.0, "city": "郑州市", "wgs84_x": 113.6193044, "wgs84_y": 34.7474859, "fid_2": 3, "corridor_id": "KG", "corridor_nm": "Beijing-Guangzhou", "label_cn": "京广", "label_en": "Beijing–Guangzhou Corridor", "tp_type": "mixed", "node_type": "core" }, "geometry": { "type": "Point", "coordinates": [ 113.6193044, 34.7474859 ] } },
{ "type": "Feature", "properties": { "fid": 19, "province": "河南省", "city_code": 411000000000.0, "city": "安阳市", "wgs84_x": 114.3863901, "wgs84_y": 36.098605, "fid_2": 3, "corridor_id": "KG", "corridor_nm": "Beijing-Guangzhou", "label_cn": "京广", "label_en": "Beijing–Guangzhou Corridor", "tp_type": "mixed", "node_type": "middle" }, "geometry": { "type": "Point", "coordinates": [ 114.386390099999971, 36.098605 ] } },
{ "type": "Feature", "properties": { "fid": 20, "province": "河南省", "city_code": 411000000000.0, "city": "鹤壁市", "wgs84_x": 114.2913757, "wgs84_y": 35.74839753, "fid_2": 3, "corridor_id": "KG", "corridor_nm": "Beijing-Guangzhou", "label_cn": "京广", "label_en": "Beijing–Guangzhou Corridor", "tp_type": "mixed", "node_type": "middle" }, "geometry": { "type": "Point", "coordinates": [ 114.291375699999989, 35.74839753 ] } },
{ "type": "Feature", "properties": { "fid": 21, "province": "河南省", "city_code": 411000000000.0, "city": "新乡市", "wgs84_x": 113.9208847, "wgs84_y": 35.30417395, "fid_2": 3, "corridor_id": "KG", "corridor_nm": "Beijing-Guangzhou", "label_cn": "京广", "label_en": "Beijing–Guangzhou Corridor", "tp_type": "mixed", "node_type": "middle" }, "geometry": { "type": "Point", "coordinates": [ 113.920884699999988, 35.30417395 ] } },
{ "type": "Feature", "properties": { "fid": 22, "province": "河南省", "city_code": 411000000000.0, "city": "许昌市", "wgs84_x": 113.8461307, "wgs84_y": 34.03887712, "fid_2": 3, "corridor_id": "KG", "corridor_nm": "Beijing-Guangzhou", "label_cn": "京广", "label_en": "Beijing–Guangzhou Corridor", "tp_type": "mixed", "node_type": "middle" }, "geometry": { "type": "Point", "coordinates": [ 113.846130699999989, 34.03887712 ] } },
{ "type": "Feature", "properties": { "fid": 23, "province": "河南省", "city_code": 412000000000.0, "city": "信阳市", "wgs84_x": 114.085171, "wgs84_y": 32.1505687, "fid_2": 3, "corridor_id": "KG", "corridor_nm": "Beijing-Guangzhou", "label_cn": "京广", "label_en": "Beijing–Guangzhou Corridor", "tp_type": "mixed", "node_type": "middle" }, "geometry": { "type": "Point", "coordinates": [ 114.085171, 32.1505687 ] } },
{ "type": "Feature", "properties": { "fid": 24, "province": "河南省", "city_code": 412000000000.0, "city": "驻马店市", "wgs84_x": 114.0161046, "wgs84_y": 33.015849, "fid_2": 3, "corridor_id": "KG", "corridor_nm": "Beijing-Guangzhou", "label_cn": "京广", "label_en": "Beijing–Guangzhou Corridor", "tp_type": "mixed", "node_type": "middle" }, "geometry": { "type": "Point", "coordinates": [ 114.016104599999977, 33.015849 ] } },
{ "type": "Feature", "properties": { "fid": 25, "province": "湖北省", "city_code": 420000000000.0, "city": "武汉市", "wgs84_x": 114.2991253, "wgs84_y": 30.59576481, "fid_2": 3, "corridor_id": "KG", "corridor_nm": "Beijing-Guangzhou", "label_cn": "京广", "label_en": "Beijing–Guangzhou Corridor", "tp_type": "mixed", "node_type": "core" }, "geometry": { "type": "Point", "coordinates": [ 114.299125299999986, 30.59576481 ] } },
{ "type": "Feature", "properties": { "fid": 26, "province": "湖南省", "city_code": 430000000000.0, "city": "长沙市", "wgs84_x": 112.933432, "wgs84_y": 28.23181145, "fid_2": 3, "corridor_id": "KG", "corridor_nm": "Beijing-Guangzhou", "label_cn": "京广", "label_en": "Beijing–Guangzhou Corridor", "tp_type": "mixed", "node_type": "core" }, "geometry": { "type": "Point", "coordinates": [ 112.933432, 28.23181145 ] } },
{ "type": "Feature", "properties": { "fid": 27, "province": "湖南省", "city_code": 430000000000.0, "city": "湘潭市", "wgs84_x": 112.9400052, "wgs84_y": 27.83480661, "fid_2": 3, "corridor_id": "KG", "corridor_nm": "Beijing-Guangzhou", "label_cn": "京广", "label_en": "Beijing–Guangzhou Corridor", "tp_type": "mixed", "node_type": "middle" }, "geometry": { "type": "Point", "coordinates": [ 112.940005200000016, 27.83480661 ] } },
{ "type": "Feature", "properties": { "fid": 28, "province": "湖南省", "city_code": 430000000000.0, "city": "衡阳市", "wgs84_x": 112.5667809, "wgs84_y": 26.89780145, "fid_2": 3, "corridor_id": "KG", "corridor_nm": "Beijing-Guangzhou", "label_cn": "京广", "label_en": "Beijing–Guangzhou Corridor", "tp_type": "mixed", "node_type": "middle" }, "geometry": { "type": "Point", "coordinates": [ 112.566780900000012, 26.89780145 ] } },
{ "type": "Feature", "properties": { "fid": 29, "province": "湖南省", "city_code": 431000000000.0, "city": "岳阳市", "wgs84_x": 113.1229579, "wgs84_y": 29.35903584, "fid_2": 3, "corridor_id": "KG", "corridor_nm": "Beijing-Guangzhou", "label_cn": "京广", "label_en": "Beijing–Guangzhou Corridor", "tp_type": "mixed", "node_type": "middle" }, "geometry": { "type": "Point", "coordinates": [ 113.122957900000017, 29.35903584 ] } },
{ "type": "Feature", "properties": { "fid": 30, "province": "湖南省", "city_code": 431000000000.0, "city": "郴州市", "wgs84_x": 113.0100065, "wgs84_y": 25.77307268, "fid_2": 3, "corridor_id": "KG", "corridor_nm": "Beijing-Guangzhou", "label_cn": "京广", "label_en": "Beijing–Guangzhou Corridor", "tp_type": "mixed", "node_type": "middle" }, "geometry": { "type": "Point", "coordinates": [ 113.010006499999974, 25.77307268 ] } },
{ "type": "Feature", "properties": { "fid": 31, "province": "广东省", "city_code": 440000000000.0, "city": "韶关市", "wgs84_x": 113.5921343, "wgs84_y": 24.81403762, "fid_2": 3, "corridor_id": "KG", "corridor_nm": "Beijing-Guangzhou", "label_cn": "京广", "label_en": "Beijing–Guangzhou Corridor", "tp_type": "mixed", "node_type": "core" }, "geometry": { "type": "Point", "coordinates": [ 113.5921343, 24.81403762 ] } },
{ "type": "Feature", "properties": { "fid": 32, "province": "重庆市", "city_code": 500000000000.0, "city": "重庆市", "wgs84_x": 106.5467633, "wgs84_y": 29.56655324, "fid_2": 4, "corridor_id": "CY", "corridor_nm": "Chengdu-Chongqing", "label_cn": "成渝", "label_en": "Chengdu–Chongqing Corridor", "tp_type": "mixed", "node_type": "core" }, "geometry": { "type": "Point", "coordinates": [ 106.5467633, 29.56655324 ] } },
{ "type": "Feature", "properties": { "fid": 33, "province": "四川省", "city_code": 510000000000.0, "city": "成都市", "wgs84_x": 104.0637964, "wgs84_y": 30.5754155, "fid_2": 4, "corridor_id": "CY", "corridor_nm": "Chengdu-Chongqing", "label_cn": "成渝", "label_en": "Chengdu–Chongqing Corridor", "tp_type": "mixed", "node_type": "core" }, "geometry": { "type": "Point", "coordinates": [ 104.063796399999987, 30.5754155 ] } },
{ "type": "Feature", "properties": { "fid": 34, "province": "四川省", "city_code": 511000000000.0, "city": "内江市", "wgs84_x": 105.054766, "wgs84_y": 29.58278692, "fid_2": 4, "corridor_id": "CY", "corridor_nm": "Chengdu-Chongqing", "label_cn": "成渝", "label_en": "Chengdu–Chongqing Corridor", "tp_type": "mixed", "node_type": "middle" }, "geometry": { "type": "Point", "coordinates": [ 105.054766, 29.58278692 ] } },
{ "type": "Feature", "properties": { "fid": 35, "province": "四川省", "city_code": 512000000000.0, "city": "资阳市", "wgs84_x": 104.6248617, "wgs84_y": 30.13208353, "fid_2": 4, "corridor_id": "CY", "corridor_nm": "Chengdu-Chongqing", "label_cn": "成渝", "label_en": "Chengdu–Chongqing Corridor", "tp_type": "mixed", "node_type": "middle" }, "geometry": { "type": "Point", "coordinates": [ 104.624861700000011, 30.13208353 ] } }
]
}
